{"version": 0.6, "generator": "Overpass API 0.7.62.1 084b4234", "osm3s": {"timestamp_osm_base": "2024-04-06T23:18:29Z", "copyright": "The data included in this document is from www.openstreetmap.org. The data is made available under ODbL."}, "elements": [{"type": "node", "id": 844440594, "lat": 45.5184058, "lon": -73.5845376, "tags": {"addr:city": "Montr\u00e9al", "addr:housenumber": "4348", "addr:postcode": "H2W 1X3", "addr:province": "QC", "addr:street": "Rue Clark", "amenity": "restaurant", "cuisine": "coffee_shop", "name": "L'\u00c9tag\u00e8re Gourmande", "opening_hours": "Mo-Fr 08:00-19:00; Sa-Su 10:00-19:00", "phone": "+1-514-962-8134", "website": "http://etageregourmande.com/"}}, {"type": "node", "id": 1573681994, "lat": 45.5187731, "lon": -73.5846507}, {"type": "node", "id": 1573681995, "lat": 45.5187087, "lon": -73.584509}, {"type": "node", "id": 1573682002, "lat": 45.5186159, "lon": -73.5845296}, {"type": "node", "id": 1573682006, "lat": 45.5188953, "lon": -73.5843386}, {"type": "node", "id": 1573682009, "lat": 45.5186156, "lon": -73.5845524}, {"type": "node", "id": 1573682010, "lat": 45.5186967, "lon": -73.5847185}, {"type": "node", "id": 1573682012, "lat": 45.518873, "lon": -73.5842914}, {"type": "node", "id": 1574991716, "lat": 45.5187169, "lon": -73.5867732, "tags": {"amenity": "parking_entrance"}}, {"type": "node", "id": 1574991726, "lat": 45.518755, "lon": -73.5867356, "tags": {"amenity": "parking", "fixme": "Unsure how this parking exists inside Provigo, will leave it there with the warning until someone knows.", "layer": "-1", "name": "Provigo", "parking": "underground"}}, {"type": "node", "id": 1935440397, "lat": 45.5177354, "lon": -73.585168, "tags": {"amenity": "cafe", "name": "Il Caffe Cuore"}}, {"type": "node", "id": 2277927800, "lat": 45.5187603, "lon": -73.5846188}, {"type": "node", "id": 11334840759, "lat": 45.5189256, "lon": -73.5854724, "tags": {"amenity": "parking_space", "capacity": "1", "parking_space": "disabled"}}, {"type": "way", "id": 143808960, "nodes": [1573681994, 1573682010, 1573682009, 1573682002, 1573682012, 1573682006, 1573681995, 2277927800, 1573681994], "tags": {"access": "private", "amenity": "parking", "parking": "surface"}}]}